,City,Cloudiness,Country,Date,Humidity,Lat,Lng,Max Temp,Wind Speed
1,havoysund,75.0,NO,1554124800.0,86.0,71.0,24.66,274.15,10.8
2,lokosovo,92.0,RU,1554126812.0,89.0,61.13,74.84,273.579,5.68
4,beba,20.0,CU,1554123000.0,78.0,22.44,-79.73,296.15,2.1
5,atagay,0.0,RU,1554126813.0,59.0,55.1,99.39,275.679,4.1
6,comodoro rivadavia,0.0,AR,1554123600.0,42.0,-45.87,-67.48,292.15,4.6
7,tura,100.0,IN,1554126814.0,98.0,25.52,90.21,290.979,1.68
9,granadilla de abona,75.0,ES,1554126491.0,77.0,28.12,-16.58,293.15,2.6
10,ouesso,12.0,CG,1554126815.0,51.0,1.61,16.05,307.829,0.4
11,oparino,0.0,RU,1554126815.0,66.0,59.85,48.28,273.429,3.1
12,beatrice,1.0,US,1554126728.0,69.0,40.27,-96.75,277.59,4.1
13,chelmza,0.0,PL,1554126653.0,29.0,53.18,18.6,283.71,5.7
14,kuytun,88.0,RU,1554126816.0,94.0,54.34,101.51,277.429,3.65
15,stepnyak,0.0,KZ,1554126816.0,85.0,52.83,70.79,273.429,3.2
16,rocha,12.0,UY,1554126816.0,88.0,-34.48,-54.34,296.429,1.93
17,darnah,64.0,LY,1554126817.0,98.0,32.77,22.64,289.179,7.03
18,kamaishi,0.0,JP,1554126817.0,85.0,39.28,141.86,270.429,2.63
19,punta umbria,12.0,ES,1554126318.0,72.0,37.18,-6.97,291.48,4.47
20,kilindoni,12.0,TZ,1554126817.0,97.0,-7.91,39.67,302.929,5.75
21,puerto escondido,75.0,MX,1554122700.0,73.0,15.86,-97.07,297.15,4.1
22,albany,40.0,US,1554126592.0,54.0,42.65,-73.75,275.37,10.8
23,orimattila,0.0,FI,1554126734.0,32.0,60.8,25.73,280.15,5.7
24,khipro,0.0,PK,1554126819.0,23.0,25.83,69.38,302.729,1.45
25,jumla,56.0,NP,1554126819.0,90.0,29.28,82.18,271.729,1.0
26,bandarbeyla,0.0,SO,1554126819.0,100.0,9.49,50.81,300.129,3.98
27,careiro da varzea,40.0,BR,1554123600.0,79.0,-3.2,-59.81,302.15,3.6
28,hasaki,75.0,JP,1554125976.0,100.0,35.73,140.83,278.15,7.7
29,leninskoye,0.0,RU,1554123600.0,59.0,54.82,82.85,276.15,2.0
30,mendota,32.0,US,1554126817.0,93.0,36.75,-120.38,285.37,1.23
31,amga,0.0,RU,1554126821.0,66.0,60.89,131.98,260.829,1.98
32,celestun,88.0,MX,1554126821.0,93.0,20.87,-90.4,298.779,6.08
33,aripuana,8.0,BR,1554126821.0,64.0,-9.17,-60.63,305.429,1.3
34,nishihara,75.0,JP,1554126817.0,86.0,35.74,139.53,279.82,6.7
35,nuevo progreso,90.0,US,1554126563.0,87.0,26.05,-97.95,283.15,3.6
36,lander,1.0,US,1554126319.0,58.0,42.83,-108.73,274.15,1.5
37,valera,68.0,VE,1554126822.0,98.0,9.31,-70.61,299.329,1.15
38,basco,75.0,US,1554126795.0,69.0,40.33,-91.2,276.48,3.1
39,asuncion,90.0,PY,1554123600.0,100.0,-25.3,-57.63,294.15,4.1
40,superior,1.0,US,1554126812.0,86.0,39.95,-105.17,275.93,1.85
41,pochutla,5.0,MX,1554126394.0,69.0,15.74,-96.47,299.26,0.7
42,vineland,20.0,CA,1554126596.0,58.0,43.15,-79.39,273.71,5.7
43,tasiilaq,90.0,GL,1554123000.0,62.0,65.61,-37.64,269.15,6.2
44,laguna,40.0,MX,1554123600.0,58.0,27.52,-110.01,285.15,2.6
45,vila velha,68.0,BR,1554126760.0,100.0,-3.71,-38.6,300.37,0.89
47,canutama,0.0,BR,1554126825.0,72.0,-6.53,-64.38,304.579,1.48
49,tuktoyaktuk,40.0,CA,1554123600.0,92.0,69.44,-133.03,258.15,6.2
50,tevaitoa,0.0,PF,1554126825.0,100.0,-16.78,-151.5,301.829,2.93
51,plerin,20.0,FR,1554126792.0,87.0,48.54,-2.78,289.26,3.6
52,butaritari,56.0,KI,1554126826.0,100.0,3.07,172.79,301.079,4.85
53,hami,56.0,CN,1554126826.0,51.0,42.84,93.51,285.679,1.75
54,asbe teferi,92.0,ET,1554126827.0,34.0,9.08,40.87,298.379,1.15
56,dubbo,8.0,AU,1554126827.0,93.0,-32.25,148.6,285.329,4.63
57,pangnirtung,40.0,CA,1554123600.0,70.0,66.15,-65.72,256.15,2.48
58,novo aripuana,36.0,BR,1554126828.0,69.0,-5.12,-60.38,304.179,1.38
59,sobolevo,80.0,RU,1554126828.0,51.0,54.43,31.9,278.729,7.33
61,kumluca,88.0,TR,1554126828.0,90.0,36.37,30.29,279.929,0.7
62,waingapu,12.0,ID,1554126829.0,98.0,-9.65,120.26,295.829,1.4
63,biak,8.0,ID,1554126829.0,100.0,-0.91,122.88,298.829,1.0
64,port elizabeth,1.0,US,1554126785.0,37.0,39.31,-74.98,277.04,8.2
65,mawlaik,0.0,MM,1554126829.0,77.0,23.63,94.42,295.179,0.85
66,vao,0.0,EE,1554126830.0,74.0,59.1,26.19,275.179,4.53
67,shingu,0.0,JP,1554126830.0,100.0,33.72,135.99,282.479,10.05
68,mount gambier,32.0,AU,1554123600.0,87.0,-37.83,140.78,282.15,1.0
69,jamestown,0.0,AU,1554126831.0,86.0,-33.21,138.6,281.229,2.4
70,zyryanka,36.0,RU,1554126831.0,84.0,65.73,150.89,260.479,2.6
71,mezen,68.0,RU,1554126831.0,65.0,65.85,44.24,271.529,3.65
72,sokoni,32.0,CD,1554126832.0,44.0,-12.89,28.78,301.929,1.98
73,punta arenas,90.0,CL,1554126746.0,93.0,-53.16,-70.91,283.15,5.7
75,los llanos de aridane,75.0,ES,1554126418.0,72.0,28.66,-17.92,292.15,2.1
76,krasne,0.0,UA,1554123600.0,27.0,49.91,24.61,283.15,4.0
78,alekseyevsk,24.0,RU,1554126833.0,69.0,57.84,108.35,275.229,4.53
79,bredasdorp,40.0,ZA,1554125488.0,40.0,-34.53,20.04,293.15,5.1
80,lusambo,36.0,CD,1554126834.0,77.0,-4.97,23.44,301.679,1.15
81,fortuna,75.0,ES,1554126827.0,63.0,38.18,-1.13,292.15,3.1
83,quatre cocos,40.0,MU,1554126541.0,66.0,-20.21,57.76,302.15,2.6
84,udachnyy,64.0,RU,1554126539.0,84.0,66.42,112.4,272.429,2.58
85,yar-sale,24.0,RU,1554126835.0,79.0,66.83,70.83,268.229,5.58
86,boyolangu,88.0,ID,1554126835.0,95.0,-8.09,111.9,294.679,0.9
87,bluff,0.0,AU,1554126836.0,76.0,-23.58,149.07,292.179,4.43
88,qaqortoq,40.0,GL,1554123000.0,36.0,60.72,-46.03,264.15,1.0
89,chulman,0.0,RU,1554126836.0,71.0,56.84,124.9,259.179,1.18
90,severnoye,92.0,RU,1554126837.0,92.0,54.09,52.54,274.429,4.05
91,koulamoutou,0.0,GA,1554126837.0,53.0,-1.13,12.47,306.429,1.35
92,norman wells,90.0,CA,1554123600.0,86.0,65.28,-126.83,271.15,4.6
93,oak park,90.0,US,1554126565.0,89.0,41.88,-87.78,275.37,2.1
94,san patricio,76.0,PY,1554126838.0,78.0,-26.98,-56.83,300.829,1.48
95,mnogovershinnyy,0.0,RU,1554126838.0,73.0,53.94,139.92,261.829,1.5
96,burnie,0.0,AU,1554126768.0,86.0,-41.05,145.91,282.59,1.79
97,slave lake,75.0,CA,1554123600.0,86.0,55.28,-114.77,272.15,2.6
99,gbarnga,24.0,LR,1554126839.0,96.0,7.0,-9.47,305.929,2.13
100,murray bridge,0.0,AU,1554126744.0,93.0,-35.12,139.28,289.82,1.73
101,santa marta,75.0,CO,1554126301.0,79.0,11.24,-74.21,304.26,3.1
102,kisangani,8.0,CD,1554126840.0,71.0,0.52,25.21,302.379,2.25
103,mahebourg,40.0,MU,1554126541.0,66.0,-20.41,57.7,302.15,2.6
104,port hardy,90.0,CA,1554124800.0,93.0,50.7,-127.42,278.15,1.95
105,levelland,75.0,US,1554126457.0,47.0,33.59,-102.38,277.59,3.7
106,northam,0.0,GB,1554126728.0,66.0,51.04,-4.21,289.82,3.6
107,saharsa,0.0,IN,1554126842.0,84.0,25.88,86.59,293.579,0.95
108,anadyr,90.0,RU,1554126746.0,92.0,64.73,177.51,271.15,11.0
109,anan,40.0,JP,1554126721.0,60.0,33.91,134.64,279.82,8.2
110,isangel,88.0,VU,1554126842.0,100.0,-19.55,169.27,299.579,5.68
111,mehkar,0.0,IN,1554126271.0,26.0,20.15,76.57,302.829,3.43
112,te anau,80.0,NZ,1554126843.0,92.0,-45.41,167.72,277.079,1.23
113,reque,75.0,PE,1554123600.0,29.0,-6.87,-79.82,292.15,5.1
114,santa cruz de la palma,75.0,ES,1554126418.0,72.0,28.68,-17.76,292.15,2.1
116,port lincoln,0.0,AU,1554126844.0,99.0,-34.72,135.86,288.429,4.9
117,ketchikan,1.0,US,1554123360.0,80.0,55.34,-131.65,280.15,3.1
118,scarborough,8.0,GB,1554126783.0,57.0,54.28,-0.41,284.26,3.6
119,adre,0.0,TD,1554126845.0,14.0,13.47,22.2,310.029,2.03
120,yulara,0.0,AU,1554123600.0,18.0,-25.24,130.99,294.15,3.1
122,wajima,44.0,JP,1554126845.0,100.0,37.4,136.9,275.979,3.03
124,ayagoz,68.0,KZ,1554126846.0,72.0,47.96,80.43,280.579,1.05
125,heihe,20.0,RU,1554123600.0,41.0,50.24,127.51,269.15,2.0
126,esperance,40.0,TT,1554126446.0,69.0,10.24,-61.45,303.15,4.6
127,lingao,64.0,CN,1554126847.0,91.0,19.91,109.69,296.829,4.23
128,thinadhoo,64.0,MV,1554126847.0,100.0,0.53,72.93,301.679,1.58
129,baykit,68.0,RU,1554126847.0,83.0,61.68,96.39,270.729,4.53
130,karibib,0.0,NA,1554126671.0,57.0,-21.94,15.86,301.579,2.03
131,arlit,0.0,NE,1554126848.0,28.0,18.74,7.39,309.279,1.95
132,santiago de cuba,20.0,CU,1554126741.0,61.0,20.03,-75.83,299.15,2.6
133,westport,75.0,IE,1554126724.0,61.0,53.8,-9.52,282.04,4.6
134,port augusta,0.0,AU,1554126445.0,77.0,-32.49,137.76,291.15,3.1
135,gambela,0.0,ET,1554126849.0,22.0,8.25,34.59,304.679,1.18
137,boueni,20.0,YT,1554125400.0,70.0,-12.9,45.08,304.15,5.1
138,nabire,88.0,ID,1554126850.0,93.0,-3.36,135.5,293.929,0.93
139,ilulissat,40.0,GL,1554123000.0,61.0,69.22,-51.1,262.15,11.8
140,pampierstad,0.0,ZA,1554126851.0,21.0,-27.78,24.69,302.079,2.88
143,atbasar,0.0,KZ,1554126851.0,69.0,51.81,68.36,276.829,3.63
145,gao,8.0,ML,1554126852.0,18.0,16.28,-0.04,313.179,1.9
146,cap malheureux,40.0,MU,1554126842.0,66.0,-19.98,57.61,302.15,2.6
147,santa fe,36.0,AR,1554126639.0,75.0,-31.62,-60.7,300.93,1.34
148,lata,0.0,IN,1554126853.0,75.0,30.78,78.62,279.679,1.15
149,east london,20.0,ZA,1554123600.0,56.0,-33.02,27.91,293.15,10.8
151,guilin,90.0,CN,1554123600.0,87.0,25.28,110.29,287.15,1.0
153,kapit,80.0,MY,1554126854.0,94.0,2.02,112.94,295.829,1.0
155,neftcala,92.0,AZ,1554126854.0,100.0,39.37,49.25,281.379,1.68
156,victoria,75.0,BN,1554123600.0,78.0,5.28,115.24,301.15,1.5
157,oranjemund,0.0,ZA,1554126855.0,90.0,-28.55,16.43,288.829,13.78
158,poum,0.0,MK,1554125400.0,25.0,41.28,20.71,289.15,3.1
159,ayan,12.0,TR,1554126856.0,47.0,40.67,33.6,281.429,2.05
160,ukiah,90.0,US,1554126538.0,76.0,39.15,-123.21,284.82,0.93
161,katsuura,40.0,JP,1554126060.0,60.0,33.93,134.5,279.26,8.2
162,hirara,0.0,JP,1554126856.0,100.0,24.8,125.28,293.329,9.7
163,channel-port aux basques,92.0,CA,1554126857.0,88.0,47.57,-59.14,274.829,10.68
164,georgetown,20.0,GY,1554123600.0,74.0,6.8,-58.16,301.15,5.1
166,charters towers,20.0,AU,1554126858.0,93.0,-20.07,146.27,293.179,2.5
167,nouakchott,0.0,MR,1554123600.0,16.0,18.08,-15.98,303.15,4.6
168,jacqueville,20.0,CI,1554123600.0,46.0,5.21,-4.42,306.15,4.1
169,moyale,24.0,ET,1554126859.0,39.0,3.52,39.05,302.229,2.58
170,atuona,0.0,PF,1554126859.0,99.0,-9.8,-139.03,301.129,5.95
171,jiuquan,24.0,CN,1554126859.0,67.0,39.73,98.49,272.879,2.53
172,lebu,75.0,ET,1554123600.0,34.0,8.96,38.73,299.15,3.1
174,inhambane,0.0,MZ,1554123600.0,48.0,-23.87,35.38,303.15,5.1
175,menongue,0.0,AO,1554126860.0,19.0,-14.66,17.68,305.579,2.05
176,airai,64.0,TL,1554126860.0,91.0,-8.93,125.41,294.229,0.58
177,chokurdakh,0.0,RU,1554126861.0,57.0,70.62,147.9,254.779,2.48
178,morondava,0.0,MG,1554126861.0,72.0,-20.3,44.28,302.429,3.18
179,gat,0.0,SN,1554123600.0,51.0,14.69,-16.54,300.15,7.7
180,mateare,20.0,NI,1554123600.0,78.0,12.24,-86.43,297.15,3.1
182,kajaani,0.0,FI,1554124800.0,51.0,64.22,27.73,275.15,6.2
183,barrow,8.0,AR,1554126862.0,45.0,-38.31,-60.23,301.379,5.35
185,maiduguri,20.0,NG,1554126863.0,13.0,11.84,13.15,312.629,6.25
186,vikulovo,92.0,RU,1554126863.0,91.0,55.07,40.96,276.479,1.95
187,bagotville,90.0,AU,1554126632.0,88.0,-28.98,153.42,291.15,2.1
188,khatanga,8.0,RU,1554126864.0,73.0,71.98,102.47,267.279,4.43
189,samdrup jongkhar,56.0,IN,1554126864.0,95.0,26.8,91.5,286.329,0.83
190,san marcos,0.0,GT,1554123600.0,78.0,14.97,-91.79,296.15,0.93
191,koutiala,0.0,ML,1554126865.0,47.0,12.39,-5.46,310.129,2.05
192,namibe,0.0,AO,1554126865.0,94.0,-15.19,12.15,300.979,5.9
193,kudahuvadhoo,0.0,MV,1554126865.0,100.0,2.67,72.89,302.029,1.03
194,suhbaatar,8.0,MN,1554126866.0,73.0,50.23,106.21,271.329,1.6
195,kodiak,1.0,US,1554126724.0,44.0,39.95,-94.76,277.04,6.2
197,hilo,75.0,US,1554126806.0,83.0,19.71,-155.08,294.26,2.1
198,semnan,90.0,IR,1554123600.0,72.0,35.58,53.39,290.15,3.1
199,wamba,56.0,CD,1554126867.0,99.0,2.14,27.99,294.629,1.18
200,qasigiannguit,40.0,GL,1554123000.0,61.0,68.82,-51.19,262.15,11.8
201,saint-georges,68.0,CA,1554126366.0,74.0,46.12,-70.67,267.04,3.58
202,hermanus,0.0,ZA,1554126370.0,54.0,-34.42,19.24,291.48,2.68
203,husavik,12.0,CA,1554126635.0,85.0,50.56,-96.99,272.04,2.24
204,cape town,20.0,ZA,1554126190.0,39.0,-33.93,18.42,293.71,7.7
205,ponta do sol,24.0,BR,1554126869.0,59.0,-20.63,-46.0,301.029,2.58
206,salalah,20.0,OM,1554123000.0,66.0,17.01,54.1,302.15,5.1
207,pitimbu,75.0,BR,1554123600.0,100.0,-7.47,-34.81,297.15,1.5
208,kamenka,80.0,RU,1554126870.0,90.0,53.19,44.05,274.329,1.3
209,raudeberg,40.0,NO,1554126602.0,60.0,61.99,5.14,279.15,12.3
210,tha chang,44.0,TH,1554126445.0,60.0,14.76,100.39,305.93,0.89
212,high level,90.0,CA,1554123600.0,80.0,58.52,-117.13,274.15,2.1
213,aviles,0.0,ES,1554126845.0,58.0,43.55,-5.92,291.48,3.13
214,ucluelet,5.0,CA,1554126820.0,93.0,48.94,-125.55,277.15,0.83
215,chiang rai,0.0,TH,1554126368.0,65.0,19.9,99.84,299.15,2.1
216,praya,40.0,ID,1554125400.0,94.0,-8.71,116.27,299.15,1.8
217,san cristobal,40.0,EC,1554126353.0,82.0,-0.39,-78.55,288.15,1.5
218,kapaa,40.0,US,1554126808.0,88.0,22.08,-159.32,294.15,3.6
219,beringovskiy,92.0,RU,1554126873.0,92.0,63.05,179.32,272.179,5.5
220,ancud,75.0,CL,1554123600.0,93.0,-41.87,-73.83,284.15,3.1
221,calbuco,90.0,CL,1554123600.0,93.0,-41.77,-73.13,285.15,1.5
222,scottsbluff,1.0,US,1554126351.0,61.0,41.87,-103.67,277.59,2.1
223,lasa,75.0,CY,1554126316.0,72.0,34.92,32.53,290.15,4.1
224,vardo,75.0,US,1554126845.0,47.0,39.62,-77.74,275.93,5.7
225,muros,20.0,ES,1554126836.0,34.0,42.77,-9.06,294.26,2.6
226,sohag,8.0,EG,1554126875.0,30.0,26.55,31.7,294.179,4.23
227,carnarvon,0.0,ZA,1554126875.0,20.0,-30.97,22.13,293.729,3.3
228,quang ngai,44.0,VN,1554126607.0,84.0,15.12,108.8,294.579,0.7
229,itupiranga,40.0,BR,1554123600.0,83.0,-5.13,-49.33,301.15,2.6
230,mataura,92.0,NZ,1554126333.0,90.0,-46.19,168.86,281.179,5.88
231,tuatapere,92.0,NZ,1554126876.0,100.0,-46.13,167.69,282.929,7.2
232,puerto ayora,0.0,EC,1554126337.0,78.0,-0.74,-90.35,300.15,4.1
233,vidor,1.0,US,1554126606.0,87.0,30.13,-94.02,280.93,2.1
234,talnakh,80.0,RU,1554126877.0,91.0,69.49,88.39,269.979,4.3
235,marabba,0.0,SD,1554126877.0,14.0,12.35,32.18,307.329,4.95
236,lixourion,0.0,GR,1554126802.0,72.0,38.2,20.43,293.15,2.1
237,dhidhdhoo,20.0,MV,1554126877.0,100.0,6.88,73.1,302.079,1.38
239,kulhudhuffushi,20.0,MV,1554126878.0,100.0,6.62,73.07,302.079,1.38
240,campo maior,40.0,ES,1554126625.0,82.0,39.01,-7.07,289.82,4.1
241,costinesti,0.0,RO,1554125400.0,39.0,43.95,28.63,291.15,4.6
242,geraldton,75.0,CA,1554123600.0,57.0,49.72,-86.95,267.15,2.6
243,boguchany,56.0,RU,1554126879.0,64.0,58.38,97.46,273.729,5.28
245,saint-philippe,1.0,CA,1554126760.0,49.0,45.36,-73.48,269.26,5.1
246,tabas,100.0,IR,1554123600.0,21.0,33.6,56.92,302.15,5.1
247,crotone,0.0,IT,1554123000.0,42.0,39.09,17.12,291.15,2.6
248,nanortalik,92.0,GL,1554126880.0,100.0,60.14,-45.24,270.079,3.15
249,tautira,32.0,PF,1554126742.0,78.0,-17.73,-149.15,299.15,2.1
251,guaymas,20.0,MX,1554126332.0,37.0,27.92,-110.9,290.529,1.45
252,vigrestad,20.0,NO,1554126620.0,52.0,58.57,5.7,279.15,8.2
253,pevek,88.0,RU,1554126881.0,81.0,69.7,170.27,262.129,2.03
254,roma,0.0,IT,1554126724.0,49.0,41.89,12.48,295.15,3.1
255,yeppoon,20.0,AU,1554123600.0,64.0,-23.13,150.74,296.15,4.1
256,najran,40.0,SA,1554123600.0,21.0,17.54,44.22,308.15,5.1
257,igarka,68.0,RU,1554126882.0,87.0,67.47,86.57,269.779,4.88
258,mandalgovi,0.0,MN,1554126883.0,77.0,45.76,106.27,268.479,0.18
259,porto novo,75.0,BR,1554123600.0,73.0,-23.68,-45.44,296.15,2.6
260,kushima,0.0,JP,1554126745.0,48.0,31.5,131.29,278.71,2.68
261,ust-uda,68.0,RU,1554126883.0,80.0,54.17,103.03,273.629,2.03
262,douglas,1.0,US,1554123360.0,92.0,58.28,-134.39,271.15,1.05
263,kholmogory,20.0,RU,1554125400.0,60.0,64.23,41.65,273.15,7.0
264,grand gaube,40.0,MU,1554126842.0,66.0,-20.01,57.66,302.15,2.6
265,burley,1.0,US,1554123180.0,69.0,42.54,-113.79,275.15,1.7
266,kruisfontein,0.0,ZA,1554126874.0,67.0,-34.0,24.73,289.529,7.68
267,kununurra,36.0,AU,1554125400.0,73.0,-15.77,128.74,295.15,4.08
268,mayumba,24.0,GA,1554126885.0,83.0,-3.44,10.65,302.979,4.43
269,arraial do cabo,40.0,BR,1554123600.0,57.0,-22.97,-42.02,300.15,1.5
270,kandrian,100.0,PG,1554126886.0,97.0,-6.21,149.55,297.829,1.0
271,manthani,0.0,IN,1554126854.0,48.0,18.65,79.67,302.179,1.98
272,walvis bay,0.0,NA,1554123732.0,37.0,-22.95,14.51,301.15,5.1
273,mehamn,75.0,NO,1554123000.0,80.0,71.03,27.85,274.15,7.7
274,kizukuri,75.0,JP,1554126726.0,100.0,40.81,140.39,274.82,4.6
275,bisira,8.0,PA,1554126887.0,58.0,8.52,-81.71,300.779,1.18
276,buraydah,0.0,SA,1554123600.0,23.0,26.33,43.97,297.15,6.2
277,san-pedro,0.0,CI,1554126887.0,61.0,4.75,-6.64,305.879,4.75
278,petropavlovsk-kamchatskiy,75.0,RU,1554123600.0,100.0,53.05,158.65,271.15,1.0
280,karratha,0.0,AU,1554126710.0,64.0,-20.74,116.85,299.079,3.15
281,constitucion,5.0,MX,1554126617.0,43.0,23.99,-104.67,283.71,3.1
283,samarai,92.0,PG,1554126889.0,100.0,-10.62,150.67,298.379,7.03
284,la rochelle,80.0,FR,1554123600.0,63.0,46.16,-1.15,292.15,3.6
285,jovellar,0.0,PH,1554126890.0,82.0,13.07,123.6,297.429,3.95
286,teguise,40.0,ES,1554123600.0,72.0,29.06,-13.56,293.15,3.1
287,thai binh,75.0,VN,1554123600.0,94.0,20.45,106.33,296.15,1.0
288,mar del plata,76.0,AR,1554126791.0,42.0,-46.43,-67.52,292.829,7.33
290,worland,40.0,US,1554126634.0,86.0,44.02,-107.96,278.71,1.5
291,kharp,8.0,RU,1554126891.0,79.0,66.82,65.8,268.079,3.83
292,namatanai,80.0,PG,1554126891.0,100.0,-3.66,152.44,300.529,4.45
293,saint-pierre,0.0,FR,1554126724.0,45.0,48.95,4.24,293.15,3.6
294,hobart,20.0,AU,1554126679.0,81.0,-42.88,147.33,281.15,2.1
295,mwene-ditu,24.0,CD,1554126892.0,79.0,-7.01,23.45,300.179,2.43
296,inirida,92.0,CO,1554126893.0,98.0,3.87,-67.92,296.029,0.33
297,coihaique,90.0,CL,1554123600.0,66.0,-45.58,-72.07,285.15,8.2
298,golyshmanovo,24.0,RU,1554126893.0,84.0,56.4,68.37,276.079,8.23
299,turukhansk,88.0,RU,1554126894.0,91.0,65.8,87.96,271.429,4.73
300,bathsheba,20.0,BB,1554123600.0,65.0,13.22,-59.52,301.15,6.7
301,vuktyl,8.0,RU,1554126894.0,64.0,63.86,57.31,272.579,2.95
302,hoganas,0.0,SE,1554126810.0,31.0,56.2,12.56,283.15,7.2
303,necochea,8.0,AR,1554126368.0,52.0,-38.55,-58.74,300.93,2.24
304,bontang,76.0,ID,1554126895.0,100.0,0.12,117.47,298.729,1.73
305,buchach,75.0,UA,1554125400.0,39.0,49.06,25.39,282.15,2.0
306,uray,92.0,RU,1554126896.0,96.0,60.13,64.8,276.729,5.43
307,waipawa,8.0,NZ,1554125537.0,91.0,-39.94,176.59,287.04,4.02
308,caravelas,0.0,BR,1554126896.0,100.0,-17.73,-39.27,300.379,3.33
309,severo-kurilsk,88.0,RU,1554126896.0,100.0,50.68,156.12,270.279,3.08
310,mairi,44.0,BR,1554126897.0,75.0,-11.71,-40.15,300.679,2.08
311,castro,75.0,CL,1554123600.0,93.0,-42.48,-73.76,284.15,3.1
312,la palma,80.0,CO,1554126898.0,96.0,5.36,-74.39,293.979,1.03
313,cape canaveral,1.0,US,1554126725.0,82.0,28.41,-80.6,294.82,3.1
314,sao joao da barra,20.0,BR,1554123600.0,61.0,-21.64,-41.05,300.15,1.0
315,yarkovo,0.0,RU,1554125400.0,59.0,54.81,82.6,276.15,3.0
316,baghdogra,0.0,IN,1554126899.0,65.0,25.86,87.82,297.729,3.73
317,lazaro cardenas,20.0,MX,1554126766.0,48.0,28.39,-105.62,283.71,2.08
318,verkhnyaya inta,88.0,RU,1554126900.0,70.0,65.99,60.32,271.329,2.83
319,kabalo,20.0,CD,1554126900.0,78.0,-6.05,26.92,300.129,2.8
320,muisne,0.0,EC,1554123600.0,94.0,0.61,-80.02,298.15,2.1
321,sabang,68.0,PH,1554126901.0,89.0,13.72,123.58,298.179,4.18
322,avarua,92.0,CK,1554125400.0,83.0,-21.21,-159.78,301.15,10.8
324,monroe,1.0,US,1554126891.0,100.0,41.91,-83.4,275.37,1.5
325,ardesen,75.0,TR,1554125400.0,81.0,41.19,40.99,281.15,2.1
326,berlevag,90.0,NO,1554123000.0,80.0,70.86,29.09,272.15,10.8
327,bembereke,0.0,BJ,1554126902.0,37.0,10.23,2.66,310.579,1.93
328,harper,90.0,US,1554126846.0,60.0,30.3,-99.24,280.37,1.5
329,mana,0.0,RS,1554125400.0,21.0,43.52,20.24,295.15,2.6
330,bambous virieux,40.0,MU,1554126842.0,66.0,-20.34,57.76,302.15,2.6
332,toguchin,0.0,RU,1554126904.0,80.0,55.24,84.4,269.829,3.53
334,vostok,8.0,RU,1554126904.0,69.0,46.45,135.83,261.029,1.18
335,coahuayana,0.0,MX,1554126905.0,26.0,18.62,-100.35,297.029,0.6
336,nome,1.0,US,1554126902.0,81.0,30.04,-94.42,280.93,2.95
337,ngara,48.0,TZ,1554126334.0,76.0,-2.51,30.66,296.129,0.8
338,marsa matruh,0.0,EG,1554126905.0,41.0,31.35,27.25,290.729,8.38
339,okoritofulpos,0.0,HU,1554126637.0,30.0,47.92,22.51,293.15,6.7
340,marawi,80.0,PH,1554126444.0,88.0,8.0,124.29,298.15,2.24
341,noyabrsk,64.0,RU,1554126906.0,87.0,63.2,75.45,271.179,5.33
343,azuaga,24.0,ES,1554125401.0,60.0,38.26,-5.68,288.71,0.89
344,ulladulla,75.0,AU,1554126361.0,93.0,-35.36,150.48,287.15,3.1
345,chipiona,0.0,PE,1554126907.0,64.0,-14.54,-75.2,293.429,1.3
346,xiongyue,0.0,CN,1554126907.0,55.0,40.18,122.12,268.629,0.83
349,eydhafushi,0.0,MV,1554126908.0,100.0,5.1,73.07,302.229,0.85
350,bintulu,75.0,MY,1554123600.0,88.0,3.17,113.03,299.15,1.0
351,leningradskiy,64.0,RU,1554126909.0,81.0,69.38,178.42,261.229,6.33
352,boundiali,0.0,CI,1554126909.0,44.0,9.53,-6.48,308.879,2.58
353,eltville,20.0,DE,1554126909.0,41.0,50.03,8.12,292.59,4.1
354,praia da vitoria,40.0,PT,1554126304.0,67.0,38.73,-27.07,289.26,12.28
355,flinders,75.0,AU,1554126737.0,93.0,-34.58,150.85,292.59,3.1
356,college,1.0,US,1554126628.0,92.0,64.86,-147.8,273.15,2.1
357,santa maria,0.0,BR,1554123600.0,83.0,-29.69,-53.81,297.15,3.6
358,sibolga,88.0,ID,1554126911.0,100.0,1.74,98.78,293.829,0.33
359,kharsawan,36.0,IN,1554126912.0,65.0,22.8,85.83,298.029,1.05
360,iqaluit,75.0,CA,1554126721.0,71.0,63.75,-68.52,258.15,1.98
361,puerto ayacucho,40.0,CO,1554123600.0,74.0,5.66,-67.63,302.15,2.08
362,touros,90.0,BR,1554123600.0,100.0,-5.2,-35.46,297.15,2.1
364,vila franca do campo,75.0,PT,1554126891.0,67.0,37.72,-25.43,288.15,9.8
365,coquimbo,0.0,CL,1554123600.0,82.0,-29.95,-71.34,288.15,3.6
366,ornskoldsvik,0.0,SE,1554124800.0,52.0,63.29,18.72,281.15,5.7
367,pendleton,1.0,US,1554126672.0,41.0,34.65,-82.78,280.15,3.6
368,emerald,8.0,AU,1554126543.0,68.0,-23.53,148.16,292.15,2.1
369,vestmannaeyjar,40.0,IS,1554123600.0,59.0,63.44,-20.27,275.15,1.0
370,martapura,40.0,ID,1554123600.0,88.0,-3.41,114.85,301.15,1.5
371,alofi,75.0,NU,1554123600.0,88.0,-19.06,-169.92,296.15,2.6
372,huarmey,0.0,PE,1554126915.0,72.0,-10.07,-78.15,296.679,2.03
373,gizo,75.0,IL,1554126853.0,63.0,31.8,34.94,290.37,5.1
374,araouane,0.0,ML,1554126916.0,23.0,18.9,-3.53,309.829,4.2
375,cockburn town,0.0,TC,1554126836.0,99.0,21.46,-71.14,298.829,4.28
376,san ignacio,90.0,CL,1554123600.0,100.0,-36.8,-72.03,285.15,3.1
377,yongan,64.0,CN,1554126917.0,45.0,39.7,113.69,276.029,1.23
378,bolshoye nagatkino,0.0,RU,1554123600.0,92.0,54.52,47.97,280.15,4.0
379,guerrero negro,24.0,MX,1554126917.0,41.0,27.97,-114.04,289.029,0.73
380,kovrov,68.0,RU,1554126918.0,88.0,56.37,41.31,274.529,2.2
381,aklavik,75.0,CA,1554123600.0,79.0,68.22,-135.01,267.15,3.1
382,ewa beach,1.0,US,1554126560.0,82.0,21.32,-158.01,293.15,2.1
383,abu samrah,24.0,SY,1554126918.0,94.0,35.3,37.18,285.429,5.4
384,gigmoto,8.0,PH,1554126919.0,100.0,13.78,124.39,298.029,4.5
385,vila,0.0,IT,1554126905.0,36.0,45.18,8.4,296.48,3.1
386,naze,12.0,NG,1554126919.0,72.0,5.43,7.07,306.579,2.05
387,pisco,0.0,PE,1554123600.0,30.0,-13.71,-76.2,295.15,2.6
388,sao filipe,0.0,CV,1554126920.0,91.0,14.9,-24.5,295.679,6.85
389,chuy,24.0,UY,1554126920.0,99.0,-33.69,-53.46,297.929,2.88
390,ust-koksa,0.0,RU,1554126920.0,89.0,50.27,85.62,270.229,0.33
391,half moon bay,1.0,US,1554126678.0,93.0,37.46,-122.43,285.93,1.5
392,bud,75.0,NO,1554126385.0,52.0,62.91,6.91,280.37,6.2
393,taitung,88.0,TW,1554126921.0,100.0,22.76,121.15,290.829,6.18
394,aksu,90.0,KZ,1554125400.0,66.0,52.04,76.93,280.15,2.0
395,bilibino,20.0,RU,1554126922.0,73.0,68.06,166.44,258.229,1.3
396,netanya,75.0,IL,1554126455.0,63.0,32.33,34.86,290.37,5.1
397,souillac,80.0,FR,1554126914.0,45.0,45.6,-0.6,292.04,4.6
399,okhotsk,0.0,RU,1554126923.0,82.0,59.36,143.24,267.229,3.6
400,grand forks,40.0,US,1554126900.0,93.0,47.91,-97.06,273.15,3.6
401,sorong,64.0,ID,1554126923.0,100.0,-0.86,131.25,300.679,1.0
402,kollam,40.0,IN,1554123600.0,62.0,8.88,76.6,305.15,4.6
405,kurush,90.0,RU,1554123600.0,100.0,41.28,47.83,277.15,4.1
406,fukue,40.0,JP,1554126878.0,81.0,35.03,136.69,279.26,9.3
407,majene,48.0,ID,1554126825.0,96.0,-3.54,118.97,301.529,4.18
409,vaini,20.0,IN,1554123600.0,49.0,15.34,74.49,305.15,3.1
410,anloga,20.0,GH,1554123600.0,63.0,5.79,0.9,306.15,4.6
411,lagoa,40.0,PT,1554126728.0,68.0,37.14,-8.45,292.59,4.6
412,aden,0.0,YE,1554126926.0,94.0,12.79,45.03,300.579,6.68
413,doha,44.0,QA,1554125400.0,31.0,25.29,51.53,305.15,10.8
414,daitari,76.0,IN,1554126926.0,50.0,21.11,85.83,302.629,2.93
415,la romana,20.0,DO,1554123600.0,83.0,18.43,-68.97,300.15,4.1
416,eureka,90.0,US,1554126604.0,87.0,40.8,-124.16,284.15,2.1
417,yumen,80.0,CN,1554126927.0,54.0,40.29,97.04,279.379,2.08
418,antofagasta,75.0,CL,1554123600.0,72.0,-23.65,-70.4,291.15,1.5
419,xai-xai,0.0,MZ,1554126928.0,67.0,-25.04,33.64,304.029,1.58
420,haines junction,0.0,CA,1554126928.0,62.0,60.75,-137.51,262.779,1.18
421,kavieng,48.0,PG,1554126929.0,100.0,-2.57,150.8,301.779,4.23
422,praia,40.0,BR,1554126730.0,65.0,-20.25,-43.81,299.26,3.6
423,culpeper,1.0,US,1554126922.0,40.0,38.47,-78.0,277.59,4.6
425,mairana,92.0,BO,1554126930.0,93.0,-18.12,-63.96,292.729,1.68
427,meulaboh,76.0,ID,1554126930.0,100.0,4.14,96.13,300.579,1.23
428,yellowknife,75.0,CA,1554126724.0,73.0,62.45,-114.38,266.15,9.3
429,sola,20.0,NO,1554126903.0,52.0,58.89,5.65,279.15,8.2
430,vorkuta,80.0,RU,1554126931.0,87.0,67.5,64.04,269.429,7.33
431,cidreira,8.0,BR,1554126931.0,73.0,-30.17,-50.22,300.779,3.65
432,dzemul,40.0,MX,1554126377.0,73.0,21.21,-89.31,297.59,2.1
433,borovichi,64.0,RU,1554126932.0,64.0,58.39,33.91,276.529,6.53
434,calama,0.0,CL,1554126369.0,34.0,-22.46,-68.93,292.59,6.7
435,henties bay,0.0,NA,1554123732.0,75.0,-22.12,14.28,293.71,4.47
436,indiaroba,24.0,BR,1554126932.0,82.0,-11.53,-37.51,302.329,3.2
437,sao miguel do araguaia,32.0,BR,1554126933.0,87.0,-13.28,-50.16,304.229,1.93
438,ushuaia,90.0,AR,1554123600.0,100.0,-54.81,-68.31,281.15,6.2
439,moussoro,0.0,TD,1554126933.0,11.0,13.64,16.49,311.529,5.9
440,saskylakh,0.0,RU,1554126933.0,71.0,71.97,114.09,265.229,2.8
441,dongying,32.0,CN,1554126934.0,42.0,37.43,118.67,277.129,4.43
442,ahipara,8.0,NZ,1554126934.0,100.0,-35.17,173.16,291.129,4.83
443,beaufort,75.0,MY,1554123600.0,78.0,5.36,115.76,300.93,1.5
444,lieto,0.0,FI,1554126346.0,52.0,60.5,22.46,278.71,6.7
445,ituango,68.0,CO,1554126935.0,95.0,7.17,-75.76,294.229,0.18
446,el dorado,56.0,VE,1554126935.0,59.0,6.71,-61.64,301.729,1.8
447,bafia,8.0,CM,1554126935.0,34.0,4.74,11.22,308.629,1.38
448,thompson,90.0,CA,1554124500.0,79.0,55.74,-97.86,268.15,4.1
449,siniscola,0.0,IT,1554124800.0,63.0,40.57,9.69,289.15,5.7
450,busselton,92.0,AU,1554126905.0,50.0,-33.64,115.35,292.59,5.78
451,cabedelo,75.0,BR,1554123600.0,100.0,-6.97,-34.84,297.15,1.5
452,cabo san lucas,5.0,MX,1554126436.0,32.0,22.89,-109.91,292.15,5.1
453,lugovoy,92.0,RU,1554126937.0,92.0,59.72,65.88,276.729,6.13
454,hamilton,75.0,BM,1554126385.0,73.0,32.3,-64.78,294.82,6.2
455,terra santa,68.0,BR,1554126938.0,73.0,-2.1,-56.49,303.529,1.9
456,luanda,40.0,AO,1554123600.0,70.0,-8.83,13.24,303.15,2.1
457,narsaq,40.0,GL,1554123000.0,36.0,60.91,-46.05,264.15,1.0
458,hambantota,20.0,LK,1554124200.0,83.0,6.12,81.12,302.15,3.6
459,torbay,90.0,CA,1554126799.0,100.0,47.66,-52.73,282.59,6.2
460,sorland,75.0,NO,1554124800.0,75.0,67.67,12.69,278.15,8.2
461,dikson,44.0,RU,1554126940.0,94.0,73.51,80.55,269.679,12.03
462,merritt island,40.0,US,1554126664.0,77.0,28.54,-80.67,294.26,2.1
463,maniitsoq,32.0,GL,1554126940.0,87.0,65.42,-52.9,267.679,4.4
464,la paz,5.0,MX,1554123600.0,66.0,24.15,-110.32,284.15,1.5
465,batesville,1.0,US,1554126870.0,80.0,35.77,-91.64,277.59,1.5
466,skelmersdale,20.0,GB,1554126916.0,66.0,53.55,-2.78,286.48,5.1
467,sawtell,75.0,AU,1554126806.0,93.0,-30.38,153.1,292.04,5.1
468,camacha,20.0,PT,1554125826.0,52.0,33.08,-16.33,293.15,3.1
470,new norfolk,20.0,AU,1554126679.0,81.0,-42.78,147.06,281.15,2.1
471,kaduqli,0.0,SD,1554126943.0,17.0,11.01,29.72,308.929,3.4
472,nampula,40.0,MZ,1554123600.0,54.0,-15.12,39.26,302.15,2.1
473,chulym,0.0,RU,1554126943.0,77.0,55.09,80.97,270.429,2.7
474,chiang kham,0.0,TH,1554126093.0,65.0,19.53,100.3,301.48,2.1
475,pundaguitan,12.0,PH,1554126944.0,100.0,6.37,126.17,299.329,3.33
476,saldanha,76.0,PT,1554126944.0,32.0,41.42,-6.55,291.829,1.53
477,upernavik,36.0,GL,1554126945.0,100.0,72.79,-56.15,264.079,3.88
480,the valley,40.0,AI,1554126323.0,69.0,18.22,-63.06,300.93,5.1
481,kem,80.0,UG,1554126945.0,23.0,2.68,33.77,306.079,4.33
482,cherskiy,88.0,RU,1554126946.0,64.0,68.75,161.3,261.629,1.7
483,duku,44.0,NG,1554126946.0,18.0,11.24,4.91,313.829,3.53
484,energetik,0.0,RU,1554126946.0,66.0,51.74,58.8,278.329,4.45
485,sungairaya,56.0,ID,1554126942.0,94.0,0.7,108.9,298.379,1.75
486,puerto del rosario,20.0,ES,1554125400.0,68.0,28.5,-13.86,293.15,3.1
487,keffi,20.0,NG,1554123600.0,32.0,8.85,7.88,310.15,2.6
488,dingle,0.0,PH,1554126947.0,69.0,11.0,122.67,298.329,6.23
489,tambun,75.0,MY,1554123600.0,83.0,4.62,101.14,301.15,2.1
490,bafoulabe,0.0,ML,1554126948.0,23.0,13.81,-10.83,312.329,4.28
492,komsomolskiy,80.0,RU,1554126949.0,90.0,67.55,63.78,269.929,7.38
493,yerbogachen,92.0,RU,1554126949.0,82.0,61.28,108.01,276.179,4.55
494,the pas,90.0,CA,1554123600.0,68.0,53.82,-101.24,271.15,5.1
495,mathbaria,76.0,BD,1554126949.0,64.0,22.29,89.96,302.279,4.05
496,tazovskiy,0.0,RU,1554126950.0,77.0,67.47,78.7,266.529,5.33
497,wanaka,64.0,NZ,1554126950.0,72.0,-44.7,169.14,275.079,1.13
499,kaitangata,92.0,NZ,1554126907.0,75.0,-46.28,169.85,281.48,2.68
500,chapais,90.0,CA,1554123600.0,55.0,49.78,-74.86,259.15,3.6
501,kulu,12.0,CD,1554126951.0,35.0,3.47,23.69,309.029,1.28
502,hun,0.0,BE,1554126943.0,51.0,50.34,4.87,292.59,5.1
503,portland,90.0,US,1554126799.0,66.0,45.52,-122.67,283.15,1.0
504,kivioli,0.0,EE,1554126952.0,71.0,59.35,26.97,275.729,5.98
505,batemans bay,0.0,AU,1554126521.0,85.0,-35.71,150.18,288.15,1.34
506,savelugu,0.0,GH,1554126952.0,65.0,9.63,-0.83,308.529,2.05
508,sesheke,0.0,NA,1554126953.0,22.0,-17.47,24.29,306.529,3.53
509,hithadhoo,76.0,MV,1554126953.0,100.0,-0.6,73.08,301.879,2.8
510,keelung,75.0,TW,1554126914.0,77.0,25.13,121.74,293.71,7.2
511,hofn,75.0,IS,1554123600.0,55.0,64.25,-15.21,277.15,4.6
512,tambacounda,0.0,SN,1554123600.0,33.0,13.77,-13.67,313.15,3.1
513,bethel,1.0,US,1554123360.0,81.0,60.79,-161.76,273.15,1.45
515,kichmengskiy gorodok,36.0,RU,1554126955.0,81.0,59.99,45.81,273.129,3.2
517,ribeira grande,40.0,PT,1554125400.0,63.0,38.52,-28.7,290.15,7.7
520,atambua,32.0,ID,1554126957.0,100.0,-9.11,124.89,297.629,1.58
521,bulancak,75.0,TR,1554123000.0,70.0,40.94,38.23,282.15,3.6
522,varzob,20.0,TJ,1554125400.0,39.0,38.78,68.82,292.15,3.0
523,chicama,90.0,PE,1554123600.0,88.0,-7.84,-79.15,293.15,4.6
524,camopi,36.0,GF,1554126958.0,57.0,3.17,-52.33,304.229,1.35
525,sremska mitrovica,0.0,RS,1554126422.0,21.0,44.97,19.62,295.15,4.1
526,voh,0.0,NC,1554126958.0,100.0,-20.95,164.69,298.829,4.63
527,puerto leguizamo,20.0,CO,1554126958.0,84.0,-0.19,-74.78,301.579,1.38
528,mocuba,0.0,MZ,1554126959.0,50.0,-16.84,36.99,301.679,2.13
529,pasni,8.0,PK,1554126959.0,66.0,25.26,63.48,301.729,8.9
530,sioux lookout,75.0,CA,1554123600.0,62.0,50.1,-91.92,269.15,2.1
531,grindavik,40.0,IS,1554125400.0,55.0,63.84,-22.43,274.15,3.1
532,tessalit,0.0,ML,1554126960.0,24.0,20.2,1.01,308.329,3.5
533,beyneu,48.0,KZ,1554126960.0,55.0,45.32,55.19,283.929,7.08
534,nalut,8.0,LY,1554126960.0,60.0,31.86,10.98,291.629,7.7
536,xining,76.0,CN,1554126961.0,30.0,36.62,101.77,278.229,2.53
537,longyearbyen,20.0,NO,1554124800.0,61.0,78.22,15.63,262.15,5.1
538,nyrob,32.0,RU,1554126961.0,85.0,60.74,56.73,272.229,4.83
539,lompoc,20.0,US,1554126957.0,93.0,34.64,-120.46,289.26,2.6
541,lorengau,44.0,PG,1554126962.0,97.0,-2.02,147.27,301.679,4.73
542,saint simons,90.0,US,1554126783.0,76.0,31.14,-81.39,287.15,5.7
543,kwekwe,12.0,ZW,1554126962.0,32.0,-18.93,29.81,302.129,2.05
544,rikitea,68.0,PF,1554126963.0,100.0,-23.12,-134.97,297.779,5.53
545,amahai,36.0,ID,1554126018.0,75.0,-3.31,129.0,303.15,0.45
546,rawson,0.0,AR,1554126963.0,40.0,-43.3,-65.11,297.679,3.38
547,malinyi,0.0,TZ,1554126964.0,79.0,-8.94,36.14,299.979,1.0
548,kuopio,0.0,FI,1554124800.0,41.0,62.89,27.68,277.15,5.7
549,saint george,20.0,GR,1554126806.0,37.0,39.45,22.34,294.15,5.1
550,codrington,75.0,AU,1554126929.0,87.0,-28.95,153.24,291.15,1.5
551,nuuk,40.0,GL,1554126720.0,42.0,64.17,-51.74,270.15,6.7
552,peniche,40.0,PT,1554126638.0,77.0,39.36,-9.38,292.15,3.6
553,vestmanna,68.0,FO,1554124800.0,93.0,62.16,-7.17,278.15,3.6
554,malanje,12.0,AO,1554126965.0,81.0,-9.54,16.35,298.929,1.85
555,samarinesti,24.0,RO,1554126966.0,41.0,44.75,23.05,289.579,1.23
556,penzance,90.0,GB,1554126912.0,81.0,50.12,-5.53,285.15,5.7
557,sarankhola,76.0,BD,1554126966.0,64.0,22.31,89.79,302.279,4.05
558,sur,8.0,OM,1554126966.0,80.0,22.57,59.53,299.829,2.03
559,tiksi,24.0,RU,1554126967.0,69.0,71.64,128.87,260.529,1.28
560,faanui,56.0,PF,1554126967.0,100.0,-16.48,-151.75,302.029,3.18
561,oeiras,92.0,BR,1554126967.0,100.0,-7.01,-42.13,296.229,1.85
562,klaksvik,80.0,FO,1554124800.0,93.0,62.23,-6.59,278.15,3.6
563,mount isa,0.0,AU,1554123600.0,40.0,-20.73,139.49,295.15,3.6
565,port alfred,12.0,ZA,1554126953.0,61.0,-33.59,26.89,292.59,4.47
567,skjervoy,90.0,NO,1554124800.0,100.0,70.03,20.97,276.15,6.7
568,wanning,20.0,AT,1554126864.0,36.0,48.64,13.53,290.93,7.7
569,alice springs,0.0,AU,1554123600.0,25.0,-23.7,133.88,290.15,3.1
570,padang,92.0,ID,1554126970.0,100.0,-0.92,100.36,301.679,1.63
572,finnsnes,75.0,NO,1554124800.0,51.0,69.23,17.98,277.15,7.7
573,port blair,0.0,IN,1554126970.0,100.0,11.67,92.75,302.429,1.15
574,havre-saint-pierre,90.0,CA,1554124020.0,92.0,50.23,-63.6,272.15,4.6
575,kitimat,5.0,CA,1554126316.0,69.0,54.02,-128.69,275.15,6.2
577,general roca,0.0,AR,1554123600.0,55.0,-39.03,-67.58,292.15,3.1
578,marienburg,0.0,DE,1554126916.0,32.0,52.12,9.98,285.93,6.7
580,luderitz,8.0,NA,1554126972.0,68.0,-26.65,15.16,292.979,9.95
581,akureyri,0.0,IS,1554123600.0,47.0,65.68,-18.09,275.15,1.5
582,qaanaaq,76.0,GL,1554126973.0,89.0,77.48,-69.36,257.279,2.38
583,neuquen,0.0,AR,1554123600.0,55.0,-38.95,-68.06,292.15,3.1
585,acapulco,40.0,MX,1554123000.0,77.0,16.86,-99.88,293.15,0.85
586,tra vinh,80.0,VN,1554126967.0,73.0,9.93,106.35,301.429,3.7
587,lavrentiya,64.0,RU,1554126974.0,96.0,65.58,-170.99,268.829,0.48
588,kiunga,92.0,PG,1554126974.0,98.0,-6.12,141.3,295.329,1.15
589,quirinopolis,8.0,BR,1554126974.0,81.0,-18.45,-50.45,302.729,2.18
590,aldan,8.0,RU,1554126975.0,70.0,58.61,125.39,262.079,1.45
591,acari,76.0,BR,1554126975.0,72.0,-6.44,-36.64,301.179,4.23
592,kolokani,20.0,ML,1554126975.0,29.0,13.58,-8.03,311.529,2.25
594,qeshm,0.0,IR,1554125400.0,38.0,26.96,56.27,304.15,3.1
595,caribou,75.0,US,1554126961.0,63.0,46.86,-68.01,272.59,8.7
596,adrar,0.0,DZ,1554123600.0,19.0,27.87,-0.29,300.15,2.6
598,smolenka,0.0,PL,1554126962.0,42.0,54.15,22.76,282.04,3.03
599,provideniya,64.0,RU,1554126977.0,95.0,64.42,-173.23,270.429,3.65
600,jalu,20.0,LY,1554126977.0,39.0,29.03,21.55,294.479,2.05
601,victor harbor,0.0,AU,1554126944.0,77.0,-35.55,138.62,288.15,0.5
602,pio ix,88.0,BR,1554126978.0,100.0,-6.83,-40.61,297.129,1.0
603,osorno,90.0,CL,1554123600.0,87.0,-40.57,-73.14,286.15,2.1
604,morros,90.0,BR,1554123600.0,100.0,-2.87,-44.04,297.15,1.0
605,bilma,0.0,NE,1554126979.0,14.0,18.69,12.92,307.429,3.7
606,aswan,0.0,EG,1554126979.0,23.0,24.09,32.9,297.229,3.5
607,nikolskoye,75.0,RU,1554126936.0,48.0,59.7,30.79,279.26,9.0
608,sitka,48.0,US,1554123653.0,92.0,37.17,-99.65,274.82,2.68
609,port macquarie,90.0,AU,1554126904.0,93.0,-31.43,152.91,292.04,3.1
610,sainte-suzanne,0.0,CH,1554126947.0,30.0,47.51,6.77,292.15,3.6
612,palafrugell,0.0,ES,1554126915.0,42.0,41.92,3.16,293.71,5.1
614,kahului,75.0,US,1554126882.0,77.0,20.89,-156.47,294.26,1.5
615,kaluga,0.0,RU,1554125400.0,38.0,54.51,36.26,279.15,8.0
616,sinnamary,92.0,GF,1554126982.0,99.0,5.38,-52.96,299.429,3.7
617,fort nelson,40.0,CA,1554123600.0,75.0,58.81,-122.69,273.15,1.13
618,mackay,20.0,CA,1554123600.0,92.0,53.65,-115.58,273.15,3.6
619,spearfish,90.0,US,1554126904.0,100.0,44.49,-103.86,273.15,2.1
620,bereda,20.0,ES,1554126842.0,52.0,43.27,-7.54,293.15,3.1
622,pouembout,32.0,NC,1554126983.0,86.0,-21.12,164.9,295.029,1.8
623,lalganj,0.0,IN,1554125400.0,28.0,26.17,80.97,300.15,3.1
624,conceicao da barra,8.0,BR,1554126924.0,83.0,-18.59,-39.73,301.029,2.18
625,atar,0.0,MR,1554126984.0,26.0,20.52,-13.05,302.979,2.03
626,willowmore,12.0,ZA,1554126984.0,57.0,-33.3,23.49,285.529,2.73
627,rundu,36.0,NA,1554126985.0,27.0,-17.91,19.77,305.679,2.18
628,jiwani,20.0,PK,1554126985.0,41.0,25.05,61.74,303.429,4.98
630,larsnes,75.0,NO,1554126902.0,48.0,62.2,5.58,280.37,11.8
631,nantucket,20.0,US,1554126905.0,44.0,41.28,-70.1,278.71,7.7
